NAV-PVT:
  iTOW=0x00438CF8
  year=0x07DF
  month=0x0A
  day=0x12
  hour=0x01
  min=0x0D
  sec=0x2F
  valid=0xF0
  tAcc=0xFFFFFFFF
  nano=0x00000000
  fixType=0x00
  flags=0x00
  flags2=0x04
  numSV=0x00
  lon=0x00000000
  lat=0x00000000
  height=0x00000000
  hMSL=0x-0004268
  hAcc=0xFFFFFFFF
  vAcc=0xFFFFFFFF
  velN=0x00000000
  velE=0x00000000
  velD=0x00000000
  gSpeed=0x00000000
  headMot=0x00000000
  sAcc=0x000F4240
  headAcc=0x0112A880
  pDOP=0x270F
  flags3=0x00
  reserved1=0x00
  reserved1x=0x00234AF8
  headVeh=0x00000000
  magDec=0x0000
  magAcc=0x0000
NAV-DOP:
  iTOW=0x00438CF8
  gDOP=0x270F
  pDOP=0x270F
  tDOP=0x270F
  vDOP=0x270F
  hDOP=0x270F
  nDOP=0x270F
  eDOP=0x270F
NAV-PVT:
  iTOW=0x00438DC0
  year=0x07DF
  month=0x0A
  day=0x12
  hour=0x01
  min=0x0D
  sec=0x2F
  valid=0xF0
  tAcc=0xFFFFFFFF
  nano=0x0BEBC1FF
  fixType=0x00
  flags=0x00
  flags2=0x04
  numSV=0x00
  lon=0x00000000
  lat=0x00000000
  height=0x00000000
  hMSL=0x-0004268
  hAcc=0xFFFFFFFF
  vAcc=0xFFFFFFFF
  velN=0x00000000
  velE=0x00000000
  velD=0x00000000
  gSpeed=0x00000000
  headMot=0x00000000
  sAcc=0x000F4240
  headAcc=0x0112A880
  pDOP=0x270F
  flags3=0x00
  reserved1=0x00
  reserved1x=0x00234AF8
  headVeh=0x00000000
  magDec=0x0000
  magAcc=0x0000
NAV-DOP:
  iTOW=0x00438DC0
  gDOP=0x270F
  pDOP=0x270F
  tDOP=0x270F
  vDOP=0x270F
  hDOP=0x270F
  nDOP=0x270F
  eDOP=0x270F
NAV-PVT:
  iTOW=0x00438E88
  year=0x07DF
  month=0x0A
  day=0x12
  hour=0x01
  min=0x0D
  sec=0x2F
  valid=0xF0
  tAcc=0xFFFFFFFF
  nano=0x17D78400
  fixType=0x00
  flags=0x00
  flags2=0x04
  numSV=0x00
  lon=0x00000000
  lat=0x00000000
  height=0x00000000
  hMSL=0x-0004268
  hAcc=0xFFFFFFFF
  vAcc=0xFFFFFFFF
  velN=0x00000000
  velE=0x00000000
  velD=0x00000000
  gSpeed=0x00000000
  headMot=0x00000000
  sAcc=0x000F4240
  headAcc=0x0112A880
  pDOP=0x270F
  flags3=0x00
  reserved1=0x00
  reserved1x=0x00234AF8
  headVeh=0x00000000
  magDec=0x0000
  magAcc=0x0000
NAV-DOP:
  iTOW=0x00438E88
  gDOP=0x270F
  pDOP=0x270F
  tDOP=0x270F
  vDOP=0x270F
  hDOP=0x270F
  nDOP=0x270F
  eDOP=0x270F
NAV-PVT:
  iTOW=0x00438F50
  year=0x07DF
  month=0x0A
  day=0x12
  hour=0x01
  min=0x0D
  sec=0x2F
  valid=0xF0
  tAcc=0xFFFFFFFF
  nano=0x23C34600
  fixType=0x00
  flags=0x00
  flags2=0x04
  numSV=0x00
  lon=0x00000000
  lat=0x00000000
  height=0x00000000
  hMSL=0x-0004268
  hAcc=0xFFFFFFFF
  vAcc=0xFFFFFFFF
  velN=0x00000000
  velE=0x00000000
  velD=0x00000000
  gSpeed=0x00000000
  headMot=0x00000000
  sAcc=0x000F4240
  headAcc=0x0112A880
  pDOP=0x270F
  flags3=0x00
  reserved1=0x00
  reserved1x=0x00234AF8
  headVeh=0x00000000
  magDec=0x0000
  magAcc=0x0000
NAV-DOP:
  iTOW=0x00438F50
  gDOP=0x270F
  pDOP=0x270F
  tDOP=0x270F
  vDOP=0x270F
  hDOP=0x270F
  nDOP=0x270F
  eDOP=0x270F
NAV-PVT:
  iTOW=0x00439018
  year=0x07DF
  month=0x0A
  day=0x12
  hour=0x01
  min=0x0D
  sec=0x2F
  valid=0xF0
  tAcc=0xFFFFFFFF
  nano=0x2FAF0800
  fixType=0x00
  flags=0x00
  flags2=0x04
  numSV=0x00
  lon=0x00000000
  lat=0x00000000
  height=0x00000000
  hMSL=0x-0004268
  hAcc=0xFFFFFFFF
  vAcc=0xFFFFFFFF
  velN=0x00000000
  velE=0x00000000
  velD=0x00000000
  gSpeed=0x00000000
  headMot=0x00000000
  sAcc=0x000F4240
  headAcc=0x0112A880
  pDOP=0x270F
  flags3=0x00
  reserved1=0x00
  reserved1x=0x00234AF8
  headVeh=0x00000000
  magDec=0x0000
  magAcc=0x0000
NAV-DOP:
  iTOW=0x00439018
  gDOP=0x270F
  pDOP=0x270F
  tDOP=0x270F
  vDOP=0x270F
  hDOP=0x270F
  nDOP=0x270F
  eDOP=0x270F
NAV-PVT:
  iTOW=0x004390E0
  year=0x07DF
  month=0x0A
  day=0x12
  hour=0x01
  min=0x0D
  sec=0x30
  valid=0xF0
  tAcc=0xFFFFFFFF
  nano=0x00000000
  fixType=0x00
  flags=0x00
  flags2=0x04
  numSV=0x00
  lon=0x00000000
  lat=0x00000000
  height=0x00000000
  hMSL=0x-0004268
  hAcc=0xFFFFFFFF
  vAcc=0xFFFFFFFF
  velN=0x00000000
  velE=0x00000000
  velD=0x00000000
  gSpeed=0x00000000
  headMot=0x00000000
  sAcc=0x000F4240
  headAcc=0x0112A880
  pDOP=0x270F
  flags3=0x00
  reserved1=0x00
  reserved1x=0x00234AF8
  headVeh=0x00000000
  magDec=0x0000
  magAcc=0x0000
NAV-DOP:
  iTOW=0x004390E0
  gDOP=0x270F
  pDOP=0x270F
  tDOP=0x270F
  vDOP=0x270F
  hDOP=0x270F
  nDOP=0x270F
  eDOP=0x270F
NAV-PVT:
  iTOW=0x004391A8
  year=0x07DF
  month=0x0A
  day=0x12
  hour=0x01
  min=0x0D
  sec=0x30
  valid=0xF0
  tAcc=0xFFFFFFFF
  nano=0x0BEBC1FF
  fixType=0x00
  flags=0x00
  flags2=0x04
  numSV=0x00
  lon=0x00000000
  lat=0x00000000
  height=0x00000000
  hMSL=0x-0004268
  hAcc=0xFFFFFFFF
  vAcc=0xFFFFFFFF
  velN=0x00000000
  velE=0x00000000
  velD=0x00000000
  gSpeed=0x00000000
  headMot=0x00000000
  sAcc=0x000F4240
  headAcc=0x0112A880
  pDOP=0x270F
  flags3=0x00
  reserved1=0x00
  reserved1x=0x00234AF8
  headVeh=0x00000000
  magDec=0x0000
  magAcc=0x0000
NAV-DOP:
  iTOW=0x004391A8
  gDOP=0x270F
  pDOP=0x270F
  tDOP=0x270F
  vDOP=0x270F
  hDOP=0x270F
  nDOP=0x270F
  eDOP=0x270F
NAV-PVT:
  iTOW=0x00439270
  year=0x07DF
  month=0x0A
  day=0x12
  hour=0x01
  min=0x0D
  sec=0x30
  valid=0xF0
  tAcc=0xFFFFFFFF
  nano=0x17D78400
  fixType=0x00
  flags=0x00
  flags2=0x04
  numSV=0x00
  lon=0x00000000
  lat=0x00000000
  height=0x00000000
  hMSL=0x-0004268
  hAcc=0xFFFFFFFF
  vAcc=0xFFFFFFFF
  velN=0x00000000
  velE=0x00000000
  velD=0x00000000
  gSpeed=0x00000000
  headMot=0x00000000
  sAcc=0x000F4240
  headAcc=0x0112A880
  pDOP=0x270F
  flags3=0x00
  reserved1=0x00
  reserved1x=0x00234AF8
  headVeh=0x00000000
  magDec=0x0000
  magAcc=0x0000
NAV-DOP:
  iTOW=0x00439270
  gDOP=0x270F
  pDOP=0x270F
  tDOP=0x270F
  vDOP=0x270F
  hDOP=0x270F
  nDOP=0x270F
  eDOP=0x270F
NAV-PVT:
  iTOW=0x00439338
  year=0x07DF
  month=0x0A
  day=0x12
  hour=0x01
  min=0x0D
  sec=0x30
  valid=0xF0
  tAcc=0xFFFFFFFF
  nano=0x23C34600
  fixType=0x00
  flags=0x00
  flags2=0x04
  numSV=0x00
  lon=0x00000000
  lat=0x00000000
  height=0x00000000
  hMSL=0x-0004268
  hAcc=0xFFFFFFFF
  vAcc=0xFFFFFFFF
  velN=0x00000000
  velE=0x00000000
  velD=0x00000000
  gSpeed=0x00000000
  headMot=0x00000000
  sAcc=0x000F4240
  headAcc=0x0112A880
  pDOP=0x270F
  flags3=0x00
  reserved1=0x00
  reserved1x=0x00234AF8
  headVeh=0x00000000
  magDec=0x0000
  magAcc=0x0000
NAV-DOP:
  iTOW=0x00439338
  gDOP=0x270F
  pDOP=0x270F
  tDOP=0x270F
  vDOP=0x270F
  hDOP=0x270F
  nDOP=0x270F
  eDOP=0x270F
NAV-PVT:
  iTOW=0x00439400
  year=0x07DF
  month=0x0A
  day=0x12
  hour=0x01
  min=0x0D
  sec=0x30
  valid=0xF0
  tAcc=0xFFFFFFFF
  nano=0x2FAF0800
  fixType=0x00
  flags=0x00
  flags2=0x04
  numSV=0x00
  lon=0x00000000
  lat=0x00000000
  height=0x00000000
  hMSL=0x-0004268
  hAcc=0xFFFFFFFF
  vAcc=0xFFFFFFFF
  velN=0x00000000
  velE=0x00000000
  velD=0x00000000
  gSpeed=0x00000000
  headMot=0x00000000
  sAcc=0x000F4240
  headAcc=0x0112A880
  pDOP=0x270F
  flags3=0x00
  reserved1=0x00
  reserved1x=0x00234AF8
  headVeh=0x00000000
  magDec=0x0000
  magAcc=0x0000
NAV-DOP:
  iTOW=0x00439400
  gDOP=0x270F
  pDOP=0x270F
  tDOP=0x270F
  vDOP=0x270F
  hDOP=0x270F
  nDOP=0x270F
  eDOP=0x270F
NAV-PVT:
  iTOW=0x004394C8
  year=0x07DF
  month=0x0A
  day=0x12
  hour=0x01
  min=0x0D
  sec=0x31
  valid=0xF0
  tAcc=0xFFFFFFFF
  nano=0x00000000
  fixType=0x00
  flags=0x00
  flags2=0x04
  numSV=0x00
  lon=0x00000000
  lat=0x00000000
  height=0x00000000
  hMSL=0x-0004268
  hAcc=0xFFFFFFFF
  vAcc=0xFFFFFFFF
  velN=0x00000000
  velE=0x00000000
  velD=0x00000000
  gSpeed=0x00000000
  headMot=0x00000000
  sAcc=0x000F4240
  headAcc=0x0112A880
  pDOP=0x270F
  flags3=0x00
  reserved1=0x00
  reserved1x=0x00234AF8
  headVeh=0x00000000
  magDec=0x0000
  magAcc=0x0000
NAV-DOP:
  iTOW=0x004394C8
  gDOP=0x270F
  pDOP=0x270F
  tDOP=0x270F
  vDOP=0x270F
  hDOP=0x270F
  nDOP=0x270F
  eDOP=0x270F
NAV-PVT:
  iTOW=0x00439590
  year=0x07DF
  month=0x0A
  day=0x12
  hour=0x01
  min=0x0D
  sec=0x31
  valid=0xF0
  tAcc=0xFFFFFFFF
  nano=0x0BEBC1FF
  fixType=0x00
  flags=0x00
  flags2=0x04
  numSV=0x00
  lon=0x00000000
  lat=0x00000000
  height=0x00000000
  hMSL=0x-0004268
  hAcc=0xFFFFFFFF
  vAcc=0xFFFFFFFF
  velN=0x00000000
  velE=0x00000000
  velD=0x00000000
  gSpeed=0x00000000
  headMot=0x00000000
  sAcc=0x000F4240
  headAcc=0x0112A880
  pDOP=0x270F
  flags3=0x00
  reserved1=0x00
  reserved1x=0x00234AF8
  headVeh=0x00000000
  magDec=0x0000
  magAcc=0x0000
NAV-DOP:
  iTOW=0x00439590
  gDOP=0x270F
  pDOP=0x270F
  tDOP=0x270F
  vDOP=0x270F
  hDOP=0x270F
  nDOP=0x270F
  eDOP=0x270F
NAV-PVT:
  iTOW=0x00439658
  year=0x07DF
  month=0x0A
  day=0x12
  hour=0x01
  min=0x0D
  sec=0x31
  valid=0xF0
  tAcc=0xFFFFFFFF
  nano=0x17D78400
  fixType=0x00
  flags=0x00
  flags2=0x04
  numSV=0x00
  lon=0x00000000
  lat=0x00000000
  height=0x00000000
  hMSL=0x-0004268
  hAcc=0xFFFFFFFF
  vAcc=0xFFFFFFFF
  velN=0x00000000
  velE=0x00000000
  velD=0x00000000
  gSpeed=0x00000000
  headMot=0x00000000
  sAcc=0x000F4240
  headAcc=0x0112A880
  pDOP=0x270F
  flags3=0x00
  reserved1=0x00
  reserved1x=0x00234AF8
  headVeh=0x00000000
  magDec=0x0000
  magAcc=0x0000
NAV-DOP:
  iTOW=0x00439658
  gDOP=0x270F
  pDOP=0x270F
  tDOP=0x270F
  vDOP=0x270F
  hDOP=0x270F
  nDOP=0x270F
  eDOP=0x270F
NAV-PVT:
  iTOW=0x00439720
  year=0x07DF
  month=0x0A
  day=0x12
  hour=0x01
  min=0x0D
  sec=0x31
  valid=0xF0
  tAcc=0xFFFFFFFF
  nano=0x23C34600
  fixType=0x00
  flags=0x00
  flags2=0x04
  numSV=0x00
  lon=0x00000000
  lat=0x00000000
  height=0x00000000
  hMSL=0x-0004268
  hAcc=0xFFFFFFFF
  vAcc=0xFFFFFFFF
  velN=0x00000000
  velE=0x00000000
  velD=0x00000000
  gSpeed=0x00000000
  headMot=0x00000000
  sAcc=0x000F4240
  headAcc=0x0112A880
  pDOP=0x270F
  flags3=0x00
  reserved1=0x00
  reserved1x=0x00234AF8
  headVeh=0x00000000
  magDec=0x0000
  magAcc=0x0000
NAV-DOP:
  iTOW=0x00439720
  gDOP=0x270F
  pDOP=0x270F
  tDOP=0x270F
  vDOP=0x270F
  hDOP=0x270F
  nDOP=0x270F
  eDOP=0x270F
NAV-PVT:
  iTOW=0x004397E8
  year=0x07DF
  month=0x0A
  day=0x12
  hour=0x01
  min=0x0D
  sec=0x31
  valid=0xF0
  tAcc=0xFFFFFFFF
  nano=0x2FAF0800
  fixType=0x00
  flags=0x00
  flags2=0x04
  numSV=0x00
  lon=0x00000000
  lat=0x00000000
  height=0x00000000
  hMSL=0x-0004268
  hAcc=0xFFFFFFFF
  vAcc=0xFFFFFFFF
  velN=0x00000000
  velE=0x00000000
  velD=0x00000000
  gSpeed=0x00000000
  headMot=0x00000000
  sAcc=0x000F4240
  headAcc=0x0112A880
  pDOP=0x270F
  flags3=0x00
  reserved1=0x00
  reserved1x=0x00234AF8
  headVeh=0x00000000
  magDec=0x0000
  magAcc=0x0000
NAV-DOP:
  iTOW=0x004397E8
  gDOP=0x270F
  pDOP=0x270F
  tDOP=0x270F
  vDOP=0x270F
  hDOP=0x270F
  nDOP=0x270F
  eDOP=0x270F
MON-HW:
  pinSel=0x0001F400
  pinBank=0x00000000
  pinDir=0x00010000
  pinVal=0x0001F7EF
  noisePerMS=0x005C
  agcCnt=0x057C
  aStatus=0x02
  aPower=0x01
  flags=0x00
  reserved1=0x84
  usedMask=0x0001EBFF
  VP="b'\n\x0b\x0c\r\x0e\x0f\x01\x00\x02\x03\xff\x10\xff\x12\x1365'"
  jamInd=0x10
  reserved2=0x5E0F
  pinIrq=0x00000000
  pullH=0x0001F780
  pullL=0x00000000
NAV-PVT:
  iTOW=0x004398B0
  year=0x07DF
  month=0x0A
  day=0x12
  hour=0x01
  min=0x0D
  sec=0x32
  valid=0xF0
  tAcc=0xFFFFFFFF
  nano=0x00000000
  fixType=0x00
  flags=0x00
  flags2=0x04
  numSV=0x00
  lon=0x00000000
  lat=0x00000000
  height=0x00000000
  hMSL=0x-0004268
  hAcc=0xFFFFFFFF
  vAcc=0xFFFFFFFF
  velN=0x00000000
  velE=0x00000000
  velD=0x00000000
  gSpeed=0x00000000
  headMot=0x00000000
  sAcc=0x000F4240
  headAcc=0x0112A880
  pDOP=0x270F
  flags3=0x00
  reserved1=0x00
  reserved1x=0x00234AF8
  headVeh=0x00000000
  magDec=0x0000
  magAcc=0x0000
NAV-DOP:
  iTOW=0x004398B0
  gDOP=0x270F
  pDOP=0x270F
  tDOP=0x270F
  vDOP=0x270F
  hDOP=0x270F
  nDOP=0x270F
  eDOP=0x270F
NAV-PVT:
  iTOW=0x00439978
  year=0x07DF
  month=0x0A
  day=0x12
  hour=0x01
  min=0x0D
  sec=0x32
  valid=0xF0
  tAcc=0xFFFFFFFF
  nano=0x0BEBC1FF
  fixType=0x00
  flags=0x00
  flags2=0x04
  numSV=0x00
  lon=0x00000000
  lat=0x00000000
  height=0x00000000
  hMSL=0x-0004268
  hAcc=0xFFFFFFFF
  vAcc=0xFFFFFFFF
  velN=0x00000000
  velE=0x00000000
  velD=0x00000000
  gSpeed=0x00000000
  headMot=0x00000000
  sAcc=0x000F4240
  headAcc=0x0112A880
  pDOP=0x270F
  flags3=0x00
  reserved1=0x00
  reserved1x=0x00234AF8
  headVeh=0x00000000
  magDec=0x0000
  magAcc=0x0000
NAV-DOP:
  iTOW=0x00439978
  gDOP=0x270F
  pDOP=0x270F
  tDOP=0x270F
  vDOP=0x270F
  hDOP=0x270F
  nDOP=0x270F
  eDOP=0x270F
NAV-PVT:
  iTOW=0x00439A40
  year=0x07DF
  month=0x0A
  day=0x12
  hour=0x01
  min=0x0D
  sec=0x32
  valid=0xF0
  tAcc=0xFFFFFFFF
  nano=0x17D78400
  fixType=0x00
  flags=0x00
  flags2=0x04
  numSV=0x00
  lon=0x00000000
  lat=0x00000000
  height=0x00000000
  hMSL=0x-0004268
  hAcc=0xFFFFFFFF
  vAcc=0xFFFFFFFF
  velN=0x00000000
  velE=0x00000000
  velD=0x00000000
  gSpeed=0x00000000
  headMot=0x00000000
  sAcc=0x000F4240
  headAcc=0x0112A880
  pDOP=0x270F
  flags3=0x00
  reserved1=0x00
  reserved1x=0x00234AF8
  headVeh=0x00000000
  magDec=0x0000
  magAcc=0x0000
NAV-DOP:
  iTOW=0x00439A40
  gDOP=0x270F
  pDOP=0x270F
  tDOP=0x270F
  vDOP=0x270F
  hDOP=0x270F
  nDOP=0x270F
  eDOP=0x270F
NAV-PVT:
  iTOW=0x00439B08
  year=0x07DF
  month=0x0A
  day=0x12
  hour=0x01
  min=0x0D
  sec=0x32
  valid=0xF0
  tAcc=0xFFFFFFFF
  nano=0x23C34600
  fixType=0x00
  flags=0x00
  flags2=0x04
  numSV=0x00
  lon=0x00000000
  lat=0x00000000
  height=0x00000000
  hMSL=0x-0004268
  hAcc=0xFFFFFFFF
  vAcc=0xFFFFFFFF
  velN=0x00000000
  velE=0x00000000
  velD=0x00000000
  gSpeed=0x00000000
  headMot=0x00000000
  sAcc=0x000F4240
  headAcc=0x0112A880
  pDOP=0x270F
  flags3=0x00
  reserved1=0x00
  reserved1x=0x00234AF8
  headVeh=0x00000000
  magDec=0x0000
  magAcc=0x0000
NAV-DOP:
  iTOW=0x00439B08
  gDOP=0x270F
  pDOP=0x270F
  tDOP=0x270F
  vDOP=0x270F
  hDOP=0x270F
  nDOP=0x270F
  eDOP=0x270F
NAV-PVT:
  iTOW=0x00439BD0
  year=0x07DF
  month=0x0A
  day=0x12
  hour=0x01
  min=0x0D
  sec=0x32
  valid=0xF0
  tAcc=0xFFFFFFFF
  nano=0x2FAF0800
  fixType=0x00
  flags=0x00
  flags2=0x04
  numSV=0x00
  lon=0x00000000
  lat=0x00000000
  height=0x00000000
  hMSL=0x-0004268
  hAcc=0xFFFFFFFF
  vAcc=0xFFFFFFFF
  velN=0x00000000
  velE=0x00000000
  velD=0x00000000
  gSpeed=0x00000000
  headMot=0x00000000
  sAcc=0x000F4240
  headAcc=0x0112A880
  pDOP=0x270F
  flags3=0x00
  reserved1=0x00
  reserved1x=0x00234AF8
  headVeh=0x00000000
  magDec=0x0000
  magAcc=0x0000
NAV-DOP:
  iTOW=0x00439BD0
  gDOP=0x270F
  pDOP=0x270F
  tDOP=0x270F
  vDOP=0x270F
  hDOP=0x270F
  nDOP=0x270F
  eDOP=0x270F
NAV-PVT:
  iTOW=0x00439C98
  year=0x07DF
  month=0x0A
  day=0x12
  hour=0x01
  min=0x0D
  sec=0x33
  valid=0xF0
  tAcc=0xFFFFFFFF
  nano=0x00000000
  fixType=0x00
  flags=0x00
  flags2=0x04
  numSV=0x00
  lon=0x00000000
  lat=0x00000000
  height=0x00000000
  hMSL=0x-0004268
  hAcc=0xFFFFFFFF
  vAcc=0xFFFFFFFF
  velN=0x00000000
  velE=0x00000000
  velD=0x00000000
  gSpeed=0x00000000
  headMot=0x00000000
  sAcc=0x000F4240
  headAcc=0x0112A880
  pDOP=0x270F
  flags3=0x00
  reserved1=0x00
  reserved1x=0x00234AF8
  headVeh=0x00000000
  magDec=0x0000
  magAcc=0x0000
NAV-DOP:
  iTOW=0x00439C98
  gDOP=0x270F
  pDOP=0x270F
  tDOP=0x270F
  vDOP=0x270F
  hDOP=0x270F
  nDOP=0x270F
  eDOP=0x270F
NAV-PVT:
  iTOW=0x00439D60
  year=0x07DF
  month=0x0A
  day=0x12
  hour=0x01
  min=0x0D
  sec=0x33
  valid=0xF0
  tAcc=0xFFFFFFFF
  nano=0x0BEBC1FF
  fixType=0x00
  flags=0x00
  flags2=0x04
  numSV=0x00
  lon=0x00000000
  lat=0x00000000
  height=0x00000000
  hMSL=0x-0004268
  hAcc=0xFFFFFFFF
  vAcc=0xFFFFFFFF
  velN=0x00000000
  velE=0x00000000
  velD=0x00000000
  gSpeed=0x00000000
  headMot=0x00000000
  sAcc=0x000F4240
  headAcc=0x0112A880
  pDOP=0x270F
  flags3=0x00
  reserved1=0x00
  reserved1x=0x00234AF8
  headVeh=0x00000000
  magDec=0x0000
  magAcc=0x0000
NAV-DOP:
  iTOW=0x00439D60
  gDOP=0x270F
  pDOP=0x270F
  tDOP=0x270F
  vDOP=0x270F
  hDOP=0x270F
  nDOP=0x270F
  eDOP=0x270F
NAV-PVT:
  iTOW=0x00439E28
  year=0x07DF
  month=0x0A
  day=0x12
  hour=0x01
  min=0x0D
  sec=0x33
  valid=0xF0
  tAcc=0xFFFFFFFF
  nano=0x17D78400
  fixType=0x00
  flags=0x00
  flags2=0x04
  numSV=0x00
  lon=0x00000000
  lat=0x00000000
  height=0x00000000
  hMSL=0x-0004268
  hAcc=0xFFFFFFFF
  vAcc=0xFFFFFFFF
  velN=0x00000000
  velE=0x00000000
  velD=0x00000000
  gSpeed=0x00000000
  headMot=0x00000000
  sAcc=0x000F4240
  headAcc=0x0112A880
  pDOP=0x270F
  flags3=0x00
  reserved1=0x00
  reserved1x=0x00234AF8
  headVeh=0x00000000
  magDec=0x0000
  magAcc=0x0000
NAV-DOP:
  iTOW=0x00439E28
  gDOP=0x270F
  pDOP=0x270F
  tDOP=0x270F
  vDOP=0x270F
  hDOP=0x270F
  nDOP=0x270F
  eDOP=0x270F
NAV-PVT:
  iTOW=0x00439EF0
  year=0x07DF
  month=0x0A
  day=0x12
  hour=0x01
  min=0x0D
  sec=0x33
  valid=0xF0
  tAcc=0xFFFFFFFF
  nano=0x23C34600
  fixType=0x00
  flags=0x00
  flags2=0x04
  numSV=0x00
  lon=0x00000000
  lat=0x00000000
  height=0x00000000
  hMSL=0x-0004268
  hAcc=0xFFFFFFFF
  vAcc=0xFFFFFFFF
  velN=0x00000000
  velE=0x00000000
  velD=0x00000000
  gSpeed=0x00000000
  headMot=0x00000000
  sAcc=0x000F4240
  headAcc=0x0112A880
  pDOP=0x270F
  flags3=0x00
  reserved1=0x00
  reserved1x=0x00234AF8
  headVeh=0x00000000
  magDec=0x0000
  magAcc=0x0000
NAV-DOP:
  iTOW=0x00439EF0
  gDOP=0x270F
  pDOP=0x270F
  tDOP=0x270F
  vDOP=0x270F
  hDOP=0x270F
  nDOP=0x270F
  eDOP=0x270F
NAV-PVT:
  iTOW=0x00439FB8
  year=0x07DF
  month=0x0A
  day=0x12
  hour=0x01
  min=0x0D
  sec=0x33
  valid=0xF0
  tAcc=0xFFFFFFFF
  nano=0x2FAF0800
  fixType=0x00
  flags=0x00
  flags2=0x04
  numSV=0x00
  lon=0x00000000
  lat=0x00000000
  height=0x00000000
  hMSL=0x-0004268
  hAcc=0xFFFFFFFF
  vAcc=0xFFFFFFFF
  velN=0x00000000
  velE=0x00000000
  velD=0x00000000
  gSpeed=0x00000000
  headMot=0x00000000
  sAcc=0x000F4240
  headAcc=0x0112A880
  pDOP=0x270F
  flags3=0x00
  reserved1=0x00
  reserved1x=0x00234AF8
  headVeh=0x00000000
  magDec=0x0000
  magAcc=0x0000
NAV-DOP:
  iTOW=0x00439FB8
  gDOP=0x270F
  pDOP=0x270F
  tDOP=0x270F
  vDOP=0x270F
  hDOP=0x270F
  nDOP=0x270F
  eDOP=0x270F
NAV-PVT:
  iTOW=0x0043A080
  year=0x07DF
  month=0x0A
  day=0x12
  hour=0x01
  min=0x0D
  sec=0x34
  valid=0xF0
  tAcc=0xFFFFFFFF
  nano=0x00000000
  fixType=0x00
  flags=0x00
  flags2=0x04
  numSV=0x00
  lon=0x00000000
  lat=0x00000000
  height=0x00000000
  hMSL=0x-0004268
  hAcc=0xFFFFFFFF
  vAcc=0xFFFFFFFF
  velN=0x00000000
  velE=0x00000000
  velD=0x00000000
  gSpeed=0x00000000
  headMot=0x00000000
  sAcc=0x000F4240
  headAcc=0x0112A880
  pDOP=0x270F
  flags3=0x00
  reserved1=0x00
  reserved1x=0x00234AF8
  headVeh=0x00000000
  magDec=0x0000
  magAcc=0x0000
NAV-DOP:
  iTOW=0x0043A080
  gDOP=0x270F
  pDOP=0x270F
  tDOP=0x270F
  vDOP=0x270F
  hDOP=0x270F
  nDOP=0x270F
  eDOP=0x270F
NAV-PVT:
  iTOW=0x0043A148
  year=0x07DF
  month=0x0A
  day=0x12
  hour=0x01
  min=0x0D
  sec=0x34
  valid=0xF0
  tAcc=0xFFFFFFFF
  nano=0x0BEBC1FF
  fixType=0x00
  flags=0x00
  flags2=0x04
  numSV=0x00
  lon=0x00000000
  lat=0x00000000
  height=0x00000000
  hMSL=0x-0004268
  hAcc=0xFFFFFFFF
  vAcc=0xFFFFFFFF
  velN=0x00000000
  velE=0x00000000
  velD=0x00000000
  gSpeed=0x00000000
  headMot=0x00000000
  sAcc=0x000F4240
  headAcc=0x0112A880
  pDOP=0x270F
  flags3=0x00
  reserved1=0x00
  reserved1x=0x00234AF8
  headVeh=0x00000000
  magDec=0x0000
  magAcc=0x0000
NAV-DOP:
  iTOW=0x0043A148
  gDOP=0x270F
  pDOP=0x270F
  tDOP=0x270F
  vDOP=0x270F
  hDOP=0x270F
  nDOP=0x270F
  eDOP=0x270F
NAV-PVT:
  iTOW=0x0043A210
  year=0x07DF
  month=0x0A
  day=0x12
  hour=0x01
  min=0x0D
  sec=0x34
  valid=0xF0
  tAcc=0xFFFFFFFF
  nano=0x17D78400
  fixType=0x00
  flags=0x00
  flags2=0x04
  numSV=0x00
  lon=0x00000000
  lat=0x00000000
  height=0x00000000
  hMSL=0x-0004268
  hAcc=0xFFFFFFFF
  vAcc=0xFFFFFFFF
  velN=0x00000000
  velE=0x00000000
  velD=0x00000000
  gSpeed=0x00000000
  headMot=0x00000000
  sAcc=0x000F4240
  headAcc=0x0112A880
  pDOP=0x270F
  flags3=0x00
  reserved1=0x00
  reserved1x=0x00234AF8
  headVeh=0x00000000
  magDec=0x0000
  magAcc=0x0000
NAV-DOP:
  iTOW=0x0043A210
  gDOP=0x270F
  pDOP=0x270F
  tDOP=0x270F
  vDOP=0x270F
  hDOP=0x270F
  nDOP=0x270F
  eDOP=0x270F
NAV-PVT:
  iTOW=0x0043A2D8
  year=0x07DF
  month=0x0A
  day=0x12
  hour=0x01
  min=0x0D
  sec=0x34
  valid=0xF0
  tAcc=0xFFFFFFFF
  nano=0x23C34600
  fixType=0x00
  flags=0x00
  flags2=0x04
  numSV=0x00
  lon=0x00000000
  lat=0x00000000
  height=0x00000000
  hMSL=0x-0004268
  hAcc=0xFFFFFFFF
  vAcc=0xFFFFFFFF
  velN=0x00000000
  velE=0x00000000
  velD=0x00000000
  gSpeed=0x00000000
  headMot=0x00000000
  sAcc=0x000F4240
  headAcc=0x0112A880
  pDOP=0x270F
  flags3=0x00
  reserved1=0x00
  reserved1x=0x00234AF8
  headVeh=0x00000000
  magDec=0x0000
  magAcc=0x0000
NAV-DOP:
  iTOW=0x0043A2D8
  gDOP=0x270F
  pDOP=0x270F
  tDOP=0x270F
  vDOP=0x270F
  hDOP=0x270F
  nDOP=0x270F
  eDOP=0x270F
NAV-PVT:
  iTOW=0x0043A3A0
  year=0x07DF
  month=0x0A
  day=0x12
  hour=0x01
  min=0x0D
  sec=0x34
  valid=0xF0
  tAcc=0xFFFFFFFF
  nano=0x2FAF0800
  fixType=0x00
  flags=0x00
  flags2=0x04
  numSV=0x00
  lon=0x00000000
  lat=0x00000000
  height=0x00000000
  hMSL=0x-0004268
  hAcc=0xFFFFFFFF
  vAcc=0xFFFFFFFF
  velN=0x00000000
  velE=0x00000000
  velD=0x00000000
  gSpeed=0x00000000
  headMot=0x00000000
  sAcc=0x000F4240
  headAcc=0x0112A880
  pDOP=0x270F
  flags3=0x00
  reserved1=0x00
  reserved1x=0x00234AF8
  headVeh=0x00000000
  magDec=0x0000
  magAcc=0x0000
NAV-DOP:
  iTOW=0x0043A3A0
  gDOP=0x270F
  pDOP=0x270F
  tDOP=0x270F
  vDOP=0x270F
  hDOP=0x270F
  nDOP=0x270F
  eDOP=0x270F
NAV-PVT:
  iTOW=0x0043A468
  year=0x07DF
  month=0x0A
  day=0x12
  hour=0x01
  min=0x0D
  sec=0x35
  valid=0xF0
  tAcc=0xFFFFFFFF
  nano=0x00000000
  fixType=0x00
  flags=0x00
  flags2=0x04
  numSV=0x00
  lon=0x00000000
  lat=0x00000000
  height=0x00000000
  hMSL=0x-0004268
  hAcc=0xFFFFFFFF
  vAcc=0xFFFFFFFF
  velN=0x00000000
  velE=0x00000000
  velD=0x00000000
  gSpeed=0x00000000
  headMot=0x00000000
  sAcc=0x000F4240
  headAcc=0x0112A880
  pDOP=0x270F
  flags3=0x00
  reserved1=0x00
  reserved1x=0x00234AF8
  headVeh=0x00000000
  magDec=0x0000
  magAcc=0x0000
NAV-DOP:
  iTOW=0x0043A468
  gDOP=0x270F
  pDOP=0x270F
  tDOP=0x270F
  vDOP=0x270F
  hDOP=0x270F
  nDOP=0x270F
  eDOP=0x270F
NAV-PVT:
  iTOW=0x0043A530
  year=0x07DF
  month=0x0A
  day=0x12
  hour=0x01
  min=0x0D
  sec=0x35
  valid=0xF0
  tAcc=0xFFFFFFFF
  nano=0x0BEBC1FF
  fixType=0x00
  flags=0x00
  flags2=0x04
  numSV=0x00
  lon=0x00000000
  lat=0x00000000
  height=0x00000000
  hMSL=0x-0004268
  hAcc=0xFFFFFFFF
  vAcc=0xFFFFFFFF
  velN=0x00000000
  velE=0x00000000
  velD=0x00000000
  gSpeed=0x00000000
  headMot=0x00000000
  sAcc=0x000F4240
  headAcc=0x0112A880
  pDOP=0x270F
  flags3=0x00
  reserved1=0x00
  reserved1x=0x00234AF8
  headVeh=0x00000000
  magDec=0x0000
  magAcc=0x0000
NAV-DOP:
  iTOW=0x0043A530
  gDOP=0x270F
  pDOP=0x270F
  tDOP=0x270F
  vDOP=0x270F
  hDOP=0x270F
  nDOP=0x270F
  eDOP=0x270F
NAV-PVT:
  iTOW=0x0043A5F8
  year=0x07DF
  month=0x0A
  day=0x12
  hour=0x01
  min=0x0D
  sec=0x35
  valid=0xF0
  tAcc=0xFFFFFFFF
  nano=0x17D78400
  fixType=0x00
  flags=0x00
  flags2=0x04
  numSV=0x00
  lon=0x00000000
  lat=0x00000000
  height=0x00000000
  hMSL=0x-0004268
  hAcc=0xFFFFFFFF
  vAcc=0xFFFFFFFF
  velN=0x00000000
  velE=0x00000000
  velD=0x00000000
  gSpeed=0x00000000
  headMot=0x00000000
  sAcc=0x000F4240
  headAcc=0x0112A880
  pDOP=0x270F
  flags3=0x00
  reserved1=0x00
  reserved1x=0x00234AF8
  headVeh=0x00000000
  magDec=0x0000
  magAcc=0x0000
NAV-DOP:
  iTOW=0x0043A5F8
  gDOP=0x270F
  pDOP=0x270F
  tDOP=0x270F
  vDOP=0x270F
  hDOP=0x270F
  nDOP=0x270F
  eDOP=0x270F
NAV-PVT:
  iTOW=0x0043A6C0
  year=0x07DF
  month=0x0A
  day=0x12
  hour=0x01
  min=0x0D
  sec=0x35
  valid=0xF0
  tAcc=0xFFFFFFFF
  nano=0x23C34600
  fixType=0x00
  flags=0x00
  flags2=0x04
  numSV=0x00
  lon=0x00000000
  lat=0x00000000
  height=0x00000000
  hMSL=0x-0004268
  hAcc=0xFFFFFFFF
  vAcc=0xFFFFFFFF
  velN=0x00000000
  velE=0x00000000
  velD=0x00000000
  gSpeed=0x00000000
  headMot=0x00000000
  sAcc=0x000F4240
  headAcc=0x0112A880
  pDOP=0x270F
  flags3=0x00
  reserved1=0x00
  reserved1x=0x00234AF8
  headVeh=0x00000000
  magDec=0x0000
  magAcc=0x0000
NAV-DOP:
  iTOW=0x0043A6C0
  gDOP=0x270F
  pDOP=0x270F
  tDOP=0x270F
  vDOP=0x270F
  hDOP=0x270F
  nDOP=0x270F
  eDOP=0x270F
NAV-PVT:
  iTOW=0x0043A788
  year=0x07DF
  month=0x0A
  day=0x12
  hour=0x01
  min=0x0D
  sec=0x35
  valid=0xF0
  tAcc=0xFFFFFFFF
  nano=0x2FAF0800
  fixType=0x00
  flags=0x00
  flags2=0x04
  numSV=0x00
  lon=0x00000000
  lat=0x00000000
  height=0x00000000
  hMSL=0x-0004268
  hAcc=0xFFFFFFFF
  vAcc=0xFFFFFFFF
  velN=0x00000000
  velE=0x00000000
  velD=0x00000000
  gSpeed=0x00000000
  headMot=0x00000000
  sAcc=0x000F4240
  headAcc=0x0112A880
  pDOP=0x270F
  flags3=0x00
  reserved1=0x00
  reserved1x=0x00234AF8
  headVeh=0x00000000
  magDec=0x0000
  magAcc=0x0000
NAV-DOP:
  iTOW=0x0043A788
  gDOP=0x270F
  pDOP=0x270F
  tDOP=0x270F
  vDOP=0x270F
  hDOP=0x270F
  nDOP=0x270F
  eDOP=0x270F
NAV-PVT:
  iTOW=0x0043A850
  year=0x07DF
  month=0x0A
  day=0x12
  hour=0x01
  min=0x0D
  sec=0x36
  valid=0xF0
  tAcc=0xFFFFFFFF
  nano=0x00000000
  fixType=0x00
  flags=0x00
  flags2=0x04
  numSV=0x00
  lon=0x00000000
  lat=0x00000000
  height=0x00000000
  hMSL=0x-0004268
  hAcc=0xFFFFFFFF
  vAcc=0xFFFFFFFF
  velN=0x00000000
  velE=0x00000000
  velD=0x00000000
  gSpeed=0x00000000
  headMot=0x00000000
  sAcc=0x000F4240
  headAcc=0x0112A880
  pDOP=0x270F
  flags3=0x00
  reserved1=0x00
  reserved1x=0x00234AF8
  headVeh=0x00000000
  magDec=0x0000
  magAcc=0x0000
NAV-DOP:
  iTOW=0x0043A850
  gDOP=0x270F
  pDOP=0x270F
  tDOP=0x270F
  vDOP=0x270F
  hDOP=0x270F
  nDOP=0x270F
  eDOP=0x270F
NAV-PVT:
  iTOW=0x0043A918
  year=0x07DF
  month=0x0A
  day=0x12
  hour=0x01
  min=0x0D
  sec=0x36
  valid=0xF0
  tAcc=0xFFFFFFFF
  nano=0x0BEBC1FF
  fixType=0x00
  flags=0x00
  flags2=0x04
  numSV=0x00
  lon=0x00000000
  lat=0x00000000
  height=0x00000000
  hMSL=0x-0004268
  hAcc=0xFFFFFFFF
  vAcc=0xFFFFFFFF
  velN=0x00000000
  velE=0x00000000
  velD=0x00000000
  gSpeed=0x00000000
  headMot=0x00000000
  sAcc=0x000F4240
  headAcc=0x0112A880
  pDOP=0x270F
  flags3=0x00
  reserved1=0x00
  reserved1x=0x00234AF8
  headVeh=0x00000000
  magDec=0x0000
  magAcc=0x0000
NAV-DOP:
  iTOW=0x0043A918
  gDOP=0x270F
  pDOP=0x270F
  tDOP=0x270F
  vDOP=0x270F
  hDOP=0x270F
  nDOP=0x270F
  eDOP=0x270F
NAV-PVT:
  iTOW=0x0043A9E0
  year=0x07DF
  month=0x0A
  day=0x12
  hour=0x01
  min=0x0D
  sec=0x36
  valid=0xF0
  tAcc=0xFFFFFFFF
  nano=0x17D78400
  fixType=0x00
  flags=0x00
  flags2=0x04
  numSV=0x00
  lon=0x00000000
  lat=0x00000000
  height=0x00000000
  hMSL=0x-0004268
  hAcc=0xFFFFFFFF
  vAcc=0xFFFFFFFF
  velN=0x00000000
  velE=0x00000000
  velD=0x00000000
  gSpeed=0x00000000
  headMot=0x00000000
  sAcc=0x000F4240
  headAcc=0x0112A880
  pDOP=0x270F
  flags3=0x00
  reserved1=0x00
  reserved1x=0x00234AF8
  headVeh=0x00000000
  magDec=0x0000
  magAcc=0x0000
NAV-DOP:
  iTOW=0x0043A9E0
  gDOP=0x270F
  pDOP=0x270F
  tDOP=0x270F
  vDOP=0x270F
  hDOP=0x270F
  nDOP=0x270F
  eDOP=0x270F
NAV-PVT:
  iTOW=0x0043AAA8
  year=0x07DF
  month=0x0A
  day=0x12
  hour=0x01
  min=0x0D
  sec=0x36
  valid=0xF0
  tAcc=0xFFFFFFFF
  nano=0x23C34600
  fixType=0x00
  flags=0x00
  flags2=0x04
  numSV=0x00
  lon=0x00000000
  lat=0x00000000
  height=0x00000000
  hMSL=0x-0004268
  hAcc=0xFFFFFFFF
  vAcc=0xFFFFFFFF
  velN=0x00000000
  velE=0x00000000
  velD=0x00000000
  gSpeed=0x00000000
  headMot=0x00000000
  sAcc=0x000F4240
  headAcc=0x0112A880
  pDOP=0x270F
  flags3=0x00
  reserved1=0x00
  reserved1x=0x00234AF8
  headVeh=0x00000000
  magDec=0x0000
  magAcc=0x0000
NAV-DOP:
  iTOW=0x0043AAA8
  gDOP=0x270F
  pDOP=0x270F
  tDOP=0x270F
  vDOP=0x270F
  hDOP=0x270F
  nDOP=0x270F
  eDOP=0x270F
NAV-PVT:
  iTOW=0x0043AB70
  year=0x07DF
  month=0x0A
  day=0x12
  hour=0x01
  min=0x0D
  sec=0x36
  valid=0xF0
  tAcc=0xFFFFFFFF
  nano=0x2FAF0800
  fixType=0x00
  flags=0x00
  flags2=0x04
  numSV=0x00
  lon=0x00000000
  lat=0x00000000
  height=0x00000000
  hMSL=0x-0004268
  hAcc=0xFFFFFFFF
  vAcc=0xFFFFFFFF
  velN=0x00000000
  velE=0x00000000
  velD=0x00000000
  gSpeed=0x00000000
  headMot=0x00000000
  sAcc=0x000F4240
  headAcc=0x0112A880
  pDOP=0x270F
  flags3=0x00
  reserved1=0x00
  reserved1x=0x00234AF8
  headVeh=0x00000000
  magDec=0x0000
  magAcc=0x0000
NAV-DOP:
  iTOW=0x0043AB70
  gDOP=0x270F
  pDOP=0x270F
  tDOP=0x270F
  vDOP=0x270F
  hDOP=0x270F
  nDOP=0x270F
  eDOP=0x270F
MON-HW:
  pinSel=0x0001F400
  pinBank=0x00000000
  pinDir=0x00010000
  pinVal=0x0001F7EF
  noisePerMS=0x0057
  agcCnt=0x05CA
  aStatus=0x02
  aPower=0x01
  flags=0x00
  reserved1=0x84
  usedMask=0x0001EBFF
  VP="b'\n\x0b\x0c\r\x0e\x0f\x01\x00\x02\x03\xff\x10\xff\x12\x1365'"
  jamInd=0x0E
  reserved2=0x5E0F
  pinIrq=0x00000000
  pullH=0x0001F780
  pullL=0x00000000
NAV-PVT:
  iTOW=0x0043AC38
  year=0x07DF
  month=0x0A
  day=0x12
  hour=0x01
  min=0x0D
  sec=0x37
  valid=0xF0
  tAcc=0xFFFFFFFF
  nano=0x00000000
  fixType=0x00
  flags=0x00
  flags2=0x04
  numSV=0x00
  lon=0x00000000
  lat=0x00000000
  height=0x00000000
  hMSL=0x-0004268
  hAcc=0xFFFFFFFF
  vAcc=0xFFFFFFFF
  velN=0x00000000
  velE=0x00000000
  velD=0x00000000
  gSpeed=0x00000000
  headMot=0x00000000
  sAcc=0x000F4240
  headAcc=0x0112A880
  pDOP=0x270F
  flags3=0x00
  reserved1=0x00
  reserved1x=0x00234AF8
  headVeh=0x00000000
  magDec=0x0000
  magAcc=0x0000
NAV-DOP:
  iTOW=0x0043AC38
  gDOP=0x270F
  pDOP=0x270F
  tDOP=0x270F
  vDOP=0x270F
  hDOP=0x270F
  nDOP=0x270F
  eDOP=0x270F
NAV-PVT:
  iTOW=0x0043AD00
  year=0x07DF
  month=0x0A
  day=0x12
  hour=0x01
  min=0x0D
  sec=0x37
  valid=0xF0
  tAcc=0xFFFFFFFF
  nano=0x0BEBC1FF
  fixType=0x00
  flags=0x00
  flags2=0x04
  numSV=0x00
  lon=0x00000000
  lat=0x00000000
  height=0x00000000
  hMSL=0x-0004268
  hAcc=0xFFFFFFFF
  vAcc=0xFFFFFFFF
  velN=0x00000000
  velE=0x00000000
  velD=0x00000000
  gSpeed=0x00000000
  headMot=0x00000000
  sAcc=0x000F4240
  headAcc=0x0112A880
  pDOP=0x270F
  flags3=0x00
  reserved1=0x00
  reserved1x=0x00234AF8
  headVeh=0x00000000
  magDec=0x0000
  magAcc=0x0000
NAV-DOP:
  iTOW=0x0043AD00
  gDOP=0x270F
  pDOP=0x270F
  tDOP=0x270F
  vDOP=0x270F
  hDOP=0x270F
  nDOP=0x270F
  eDOP=0x270F
NAV-PVT:
  iTOW=0x0043ADC8
  year=0x07DF
  month=0x0A
  day=0x12
  hour=0x01
  min=0x0D
  sec=0x37
  valid=0xF0
  tAcc=0xFFFFFFFF
  nano=0x17D78400
  fixType=0x00
  flags=0x00
  flags2=0x04
  numSV=0x00
  lon=0x00000000
  lat=0x00000000
  height=0x00000000
  hMSL=0x-0004268
  hAcc=0xFFFFFFFF
  vAcc=0xFFFFFFFF
  velN=0x00000000
  velE=0x00000000
  velD=0x00000000
  gSpeed=0x00000000
  headMot=0x00000000
  sAcc=0x000F4240
  headAcc=0x0112A880
  pDOP=0x270F
  flags3=0x00
  reserved1=0x00
  reserved1x=0x00234AF8
  headVeh=0x00000000
  magDec=0x0000
  magAcc=0x0000
NAV-DOP:
  iTOW=0x0043ADC8
  gDOP=0x270F
  pDOP=0x270F
  tDOP=0x270F
  vDOP=0x270F
  hDOP=0x270F
  nDOP=0x270F
  eDOP=0x270F
NAV-PVT:
  iTOW=0x0043AE90
  year=0x07DF
  month=0x0A
  day=0x12
  hour=0x01
  min=0x0D
  sec=0x37
  valid=0xF0
  tAcc=0xFFFFFFFF
  nano=0x23C34600
  fixType=0x00
  flags=0x00
  flags2=0x04
  numSV=0x00
  lon=0x00000000
  lat=0x00000000
  height=0x00000000
  hMSL=0x-0004268
  hAcc=0xFFFFFFFF
  vAcc=0xFFFFFFFF
  velN=0x00000000
  velE=0x00000000
  velD=0x00000000
  gSpeed=0x00000000
  headMot=0x00000000
  sAcc=0x000F4240
  headAcc=0x0112A880
  pDOP=0x270F
  flags3=0x00
  reserved1=0x00
  reserved1x=0x00234AF8
  headVeh=0x00000000
  magDec=0x0000
  magAcc=0x0000
NAV-DOP:
  iTOW=0x0043AE90
  gDOP=0x270F
  pDOP=0x270F
  tDOP=0x270F
  vDOP=0x270F
  hDOP=0x270F
  nDOP=0x270F
  eDOP=0x270F
NAV-PVT:
  iTOW=0x0043AF58
  year=0x07DF
  month=0x0A
  day=0x12
  hour=0x01
  min=0x0D
  sec=0x37
  valid=0xF0
  tAcc=0xFFFFFFFF
  nano=0x2FAF0800
  fixType=0x00
  flags=0x00
  flags2=0x04
  numSV=0x00
  lon=0x00000000
  lat=0x00000000
  height=0x00000000
  hMSL=0x-0004268
  hAcc=0xFFFFFFFF
  vAcc=0xFFFFFFFF
  velN=0x00000000
  velE=0x00000000
  velD=0x00000000
  gSpeed=0x00000000
  headMot=0x00000000
  sAcc=0x000F4240
  headAcc=0x0112A880
  pDOP=0x270F
  flags3=0x00
  reserved1=0x00
  reserved1x=0x00234AF8
  headVeh=0x00000000
  magDec=0x0000
  magAcc=0x0000
NAV-DOP:
  iTOW=0x0043AF58
  gDOP=0x270F
  pDOP=0x270F
  tDOP=0x270F
  vDOP=0x270F
  hDOP=0x270F
  nDOP=0x270F
  eDOP=0x270F
NAV-PVT:
  iTOW=0x00480AF8
  year=0x07DF
  month=0x0A
  day=0x12
  hour=0x01
  min=0x12
  sec=0x29
  valid=0xF0
  tAcc=0xFFFFFFFF
  nano=0x17D78400
  fixType=0x00
  flags=0x00
  flags2=0x04
  numSV=0x00
  lon=0x00000000
  lat=0x00000000
  height=0x00000000
  hMSL=0x-0004268
  hAcc=0xFFFFFFFF
  vAcc=0xFFFFFFFF
  velN=0x00000000
  velE=0x00000000
  velD=0x00000000
  gSpeed=0x00000000
  headMot=0x00000000
  sAcc=0x000F4240
  headAcc=0x0112A880
  pDOP=0x270F
  flags3=0x00
  reserved1=0x00
  reserved1x=0x00234AF8
  headVeh=0x00000000
  magDec=0x0000
  magAcc=0x0000
NAV-DOP:
  iTOW=0x00480AF8
  gDOP=0x270F
  pDOP=0x270F
  tDOP=0x270F
  vDOP=0x270F
  hDOP=0x270F
  nDOP=0x270F
  eDOP=0x270F
NAV-PVT:
  iTOW=0x00480BC0
  year=0x07DF
  month=0x0A
  day=0x12
  hour=0x01
  min=0x12
  sec=0x29
  valid=0xF0
  tAcc=0xFFFFFFFF
  nano=0x23C34600
  fixType=0x00
  flags=0x00
  flags2=0x04
  numSV=0x00
  lon=0x00000000
  lat=0x00000000
  height=0x00000000
  hMSL=0x-0004268
  hAcc=0xFFFFFFFF
  vAcc=0xFFFFFFFF
  velN=0x00000000
  velE=0x00000000
  velD=0x00000000
  gSpeed=0x00000000
  headMot=0x00000000
  sAcc=0x000F4240
  headAcc=0x0112A880
  pDOP=0x270F
  flags3=0x00
  reserved1=0x00
  reserved1x=0x00234AF8
  headVeh=0x00000000
  magDec=0x0000
  magAcc=0x0000
NAV-DOP:
  iTOW=0x00480BC0
  gDOP=0x270F
  pDOP=0x270F
  tDOP=0x270F
  vDOP=0x270F
  hDOP=0x270F
  nDOP=0x270F
  eDOP=0x270F
NAV-PVT:
  iTOW=0x00480C88
  year=0x07DF
  month=0x0A
  day=0x12
  hour=0x01
  min=0x12
  sec=0x29
  valid=0xF0
  tAcc=0xFFFFFFFF
  nano=0x2FAF0800
  fixType=0x00
  flags=0x00
  flags2=0x04
  numSV=0x00
  lon=0x00000000
  lat=0x00000000
  height=0x00000000
  hMSL=0x-0004268
  hAcc=0xFFFFFFFF
  vAcc=0xFFFFFFFF
  velN=0x00000000
  velE=0x00000000
  velD=0x00000000
  gSpeed=0x00000000
  headMot=0x00000000
  sAcc=0x000F4240
  headAcc=0x0112A880
  pDOP=0x270F
  flags3=0x00
  reserved1=0x00
  reserved1x=0x00234AF8
  headVeh=0x00000000
  magDec=0x0000
  magAcc=0x0000
NAV-DOP:
  iTOW=0x00480C88
  gDOP=0x270F
  pDOP=0x270F
  tDOP=0x270F
  vDOP=0x270F
  hDOP=0x270F
  nDOP=0x270F
  eDOP=0x270F
NAV-PVT:
  iTOW=0x00480D50
  year=0x07DF
  month=0x0A
  day=0x12
  hour=0x01
  min=0x12
  sec=0x2A
  valid=0xF0
  tAcc=0xFFFFFFFF
  nano=0x00000000
  fixType=0x00
  flags=0x00
  flags2=0x04
  numSV=0x00
  lon=0x00000000
  lat=0x00000000
  height=0x00000000
  hMSL=0x-0004268
  hAcc=0xFFFFFFFF
  vAcc=0xFFFFFFFF
  velN=0x00000000
  velE=0x00000000
  velD=0x00000000
  gSpeed=0x00000000
  headMot=0x00000000
  sAcc=0x000F4240
  headAcc=0x0112A880
  pDOP=0x270F
  flags3=0x00
  reserved1=0x00
  reserved1x=0x00234AF8
  headVeh=0x00000000
  magDec=0x0000
  magAcc=0x0000
NAV-DOP:
  iTOW=0x00480D50
  gDOP=0x270F
  pDOP=0x270F
  tDOP=0x270F
  vDOP=0x270F
  hDOP=0x270F
  nDOP=0x270F
  eDOP=0x270F
NAV-PVT:
  iTOW=0x00480E18
  year=0x07DF
  month=0x0A
  day=0x12
  hour=0x01
  min=0x12
  sec=0x2A
  valid=0xF0
  tAcc=0xFFFFFFFF
  nano=0x0BEBC1FF
  fixType=0x00
  flags=0x00
  flags2=0x04
  numSV=0x00
  lon=0x00000000
  lat=0x00000000
  height=0x00000000
  hMSL=0x-0004268
  hAcc=0xFFFFFFFF
  vAcc=0xFFFFFFFF
  velN=0x00000000
  velE=0x00000000
  velD=0x00000000
  gSpeed=0x00000000
  headMot=0x00000000
  sAcc=0x000F4240
  headAcc=0x0112A880
  pDOP=0x270F
  flags3=0x00
  reserved1=0x00
  reserved1x=0x00234AF8
  headVeh=0x00000000
  magDec=0x0000
  magAcc=0x0000
NAV-DOP:
  iTOW=0x00480E18
  gDOP=0x270F
  pDOP=0x270F
  tDOP=0x270F
  vDOP=0x270F
  hDOP=0x270F
  nDOP=0x270F
  eDOP=0x270F
NAV-PVT:
  iTOW=0x00480EE0
  year=0x07DF
  month=0x0A
  day=0x12
  hour=0x01
  min=0x12
  sec=0x2A
  valid=0xF0
  tAcc=0xFFFFFFFF
  nano=0x17D78400
  fixType=0x00
  flags=0x00
  flags2=0x04
  numSV=0x00
  lon=0x00000000
  lat=0x00000000
  height=0x00000000
  hMSL=0x-0004268
  hAcc=0xFFFFFFFF
  vAcc=0xFFFFFFFF
  velN=0x00000000
  velE=0x00000000
  velD=0x00000000
  gSpeed=0x00000000
  headMot=0x00000000
  sAcc=0x000F4240
  headAcc=0x0112A880
  pDOP=0x270F
  flags3=0x00
  reserved1=0x00
  reserved1x=0x00234AF8
  headVeh=0x00000000
  magDec=0x0000
  magAcc=0x0000
NAV-DOP:
  iTOW=0x00480EE0
  gDOP=0x270F
  pDOP=0x270F
  tDOP=0x270F
  vDOP=0x270F
  hDOP=0x270F
  nDOP=0x270F
  eDOP=0x270F
NAV-PVT:
  iTOW=0x00480FA8
  year=0x07DF
  month=0x0A
  day=0x12
  hour=0x01
  min=0x12
  sec=0x2A
  valid=0xF0
  tAcc=0xFFFFFFFF
  nano=0x23C34600
  fixType=0x00
  flags=0x00
  flags2=0x04
  numSV=0x00
  lon=0x00000000
  lat=0x00000000
  height=0x00000000
  hMSL=0x-0004268
  hAcc=0xFFFFFFFF
  vAcc=0xFFFFFFFF
  velN=0x00000000
  velE=0x00000000
  velD=0x00000000
  gSpeed=0x00000000
  headMot=0x00000000
  sAcc=0x000F4240
  headAcc=0x0112A880
  pDOP=0x270F
  flags3=0x00
  reserved1=0x00
  reserved1x=0x00234AF8
  headVeh=0x00000000
  magDec=0x0000
  magAcc=0x0000
NAV-DOP:
  iTOW=0x00480FA8
  gDOP=0x270F
  pDOP=0x270F
  tDOP=0x270F
  vDOP=0x270F
  hDOP=0x270F
  nDOP=0x270F
  eDOP=0x270F
NAV-PVT:
  iTOW=0x00481070
  year=0x07DF
  month=0x0A
  day=0x12
  hour=0x01
  min=0x12
  sec=0x2A
  valid=0xF0
  tAcc=0xFFFFFFFF
  nano=0x2FAF0800
  fixType=0x00
  flags=0x00
  flags2=0x04
  numSV=0x00
  lon=0x00000000
  lat=0x00000000
  height=0x00000000
  hMSL=0x-0004268
  hAcc=0xFFFFFFFF
  vAcc=0xFFFFFFFF
  velN=0x00000000
  velE=0x00000000
  velD=0x00000000
  gSpeed=0x00000000
  headMot=0x00000000
  sAcc=0x000F4240
  headAcc=0x0112A880
  pDOP=0x270F
  flags3=0x00
  reserved1=0x00
  reserved1x=0x00234AF8
  headVeh=0x00000000
  magDec=0x0000
  magAcc=0x0000
NAV-DOP:
  iTOW=0x00481070
  gDOP=0x270F
  pDOP=0x270F
  tDOP=0x270F
  vDOP=0x270F
  hDOP=0x270F
  nDOP=0x270F
  eDOP=0x270F
NAV-PVT:
  iTOW=0x00481138
  year=0x07DF
  month=0x0A
  day=0x12
  hour=0x01
  min=0x12
  sec=0x2B
  valid=0xF0
  tAcc=0xFFFFFFFF
  nano=0x00000000
  fixType=0x00
  flags=0x00
  flags2=0x04
  numSV=0x00
  lon=0x00000000
  lat=0x00000000
  height=0x00000000
  hMSL=0x-0004268
  hAcc=0xFFFFFFFF
  vAcc=0xFFFFFFFF
  velN=0x00000000
  velE=0x00000000
  velD=0x00000000
  gSpeed=0x00000000
  headMot=0x00000000
  sAcc=0x000F4240
  headAcc=0x0112A880
  pDOP=0x270F
  flags3=0x00
  reserved1=0x00
  reserved1x=0x00234AF8
  headVeh=0x00000000
  magDec=0x0000
  magAcc=0x0000
NAV-DOP:
  iTOW=0x00481138
  gDOP=0x270F
  pDOP=0x270F
  tDOP=0x270F
  vDOP=0x270F
  hDOP=0x270F
  nDOP=0x270F
  eDOP=0x270F
NAV-PVT:
  iTOW=0x00481200
  year=0x07DF
  month=0x0A
  day=0x12
  hour=0x01
  min=0x12
  sec=0x2B
  valid=0xF0
  tAcc=0xFFFFFFFF
  nano=0x0BEBC1FF
  fixType=0x00
  flags=0x00
  flags2=0x04
  numSV=0x00
  lon=0x00000000
  lat=0x00000000
  height=0x00000000
  hMSL=0x-0004268
  hAcc=0xFFFFFFFF
  vAcc=0xFFFFFFFF
  velN=0x00000000
  velE=0x00000000
  velD=0x00000000
  gSpeed=0x00000000
  headMot=0x00000000
  sAcc=0x000F4240
  headAcc=0x0112A880
  pDOP=0x270F
  flags3=0x00
  reserved1=0x00
  reserved1x=0x00234AF8
  headVeh=0x00000000
  magDec=0x0000
  magAcc=0x0000
NAV-DOP:
  iTOW=0x00481200
  gDOP=0x270F
  pDOP=0x270F
  tDOP=0x270F
  vDOP=0x270F
  hDOP=0x270F
  nDOP=0x270F
  eDOP=0x270F
NAV-PVT:
  iTOW=0x004812C8
  year=0x07DF
  month=0x0A
  day=0x12
  hour=0x01
  min=0x12
  sec=0x2B
  valid=0xF0
  tAcc=0xFFFFFFFF
  nano=0x17D78400
  fixType=0x00
  flags=0x00
  flags2=0x04
  numSV=0x00
  lon=0x00000000
  lat=0x00000000
  height=0x00000000
  hMSL=0x-0004268
  hAcc=0xFFFFFFFF
  vAcc=0xFFFFFFFF
  velN=0x00000000
  velE=0x00000000
  velD=0x00000000
  gSpeed=0x00000000
  headMot=0x00000000
  sAcc=0x000F4240
  headAcc=0x0112A880
  pDOP=0x270F
  flags3=0x00
  reserved1=0x00
  reserved1x=0x00234AF8
  headVeh=0x00000000
  magDec=0x0000
  magAcc=0x0000
NAV-DOP:
  iTOW=0x004812C8
  gDOP=0x270F
  pDOP=0x270F
  tDOP=0x270F
  vDOP=0x270F
  hDOP=0x270F
  nDOP=0x270F
  eDOP=0x270F
NAV-PVT:
  iTOW=0x00481390
  year=0x07DF
  month=0x0A
  day=0x12
  hour=0x01
  min=0x12
  sec=0x2B
  valid=0xF0
  tAcc=0xFFFFFFFF
  nano=0x23C34600
  fixType=0x00
  flags=0x00
  flags2=0x04
  numSV=0x00
  lon=0x00000000
  lat=0x00000000
  height=0x00000000
  hMSL=0x-0004268
  hAcc=0xFFFFFFFF
  vAcc=0xFFFFFFFF
  velN=0x00000000
  velE=0x00000000
  velD=0x00000000
  gSpeed=0x00000000
  headMot=0x00000000
  sAcc=0x000F4240
  headAcc=0x0112A880
  pDOP=0x270F
  flags3=0x00
  reserved1=0x00
  reserved1x=0x00234AF8
  headVeh=0x00000000
  magDec=0x0000
  magAcc=0x0000
NAV-DOP:
  iTOW=0x00481390
  gDOP=0x270F
  pDOP=0x270F
  tDOP=0x270F
  vDOP=0x270F
  hDOP=0x270F
  nDOP=0x270F
  eDOP=0x270F
NAV-PVT:
  iTOW=0x00481458
  year=0x07DF
  month=0x0A
  day=0x12
  hour=0x01
  min=0x12
  sec=0x2B
  valid=0xF0
  tAcc=0xFFFFFFFF
  nano=0x2FAF0800
  fixType=0x00
  flags=0x00
  flags2=0x04
  numSV=0x00
  lon=0x00000000
  lat=0x00000000
  height=0x00000000
  hMSL=0x-0004268
  hAcc=0xFFFFFFFF
  vAcc=0xFFFFFFFF
  velN=0x00000000
  velE=0x00000000
  velD=0x00000000
  gSpeed=0x00000000
  headMot=0x00000000
  sAcc=0x000F4240
  headAcc=0x0112A880
  pDOP=0x270F
  flags3=0x00
  reserved1=0x00
  reserved1x=0x00234AF8
  headVeh=0x00000000
  magDec=0x0000
  magAcc=0x0000
NAV-DOP:
  iTOW=0x00481458
  gDOP=0x270F
  pDOP=0x270F
  tDOP=0x270F
  vDOP=0x270F
  hDOP=0x270F
  nDOP=0x270F
  eDOP=0x270F
NAV-PVT:
  iTOW=0x00481520
  year=0x07DF
  month=0x0A
  day=0x12
  hour=0x01
  min=0x12
  sec=0x2C
  valid=0xF0
  tAcc=0xFFFFFFFF
  nano=0x00000000
  fixType=0x00
  flags=0x00
  flags2=0x04
  numSV=0x00
  lon=0x00000000
  lat=0x00000000
  height=0x00000000
  hMSL=0x-0004268
  hAcc=0xFFFFFFFF
  vAcc=0xFFFFFFFF
  velN=0x00000000
  velE=0x00000000
  velD=0x00000000
  gSpeed=0x00000000
  headMot=0x00000000
  sAcc=0x000F4240
  headAcc=0x0112A880
  pDOP=0x270F
  flags3=0x00
  reserved1=0x00
  reserved1x=0x00234AF8
  headVeh=0x00000000
  magDec=0x0000
  magAcc=0x0000
NAV-DOP:
  iTOW=0x00481520
  gDOP=0x270F
  pDOP=0x270F
  tDOP=0x270F
  vDOP=0x270F
  hDOP=0x270F
  nDOP=0x270F
  eDOP=0x270F
NAV-PVT:
  iTOW=0x004815E8
  year=0x07DF
  month=0x0A
  day=0x12
  hour=0x01
  min=0x12
  sec=0x2C
  valid=0xF0
  tAcc=0xFFFFFFFF
  nano=0x0BEBC1FF
  fixType=0x00
  flags=0x00
  flags2=0x04
  numSV=0x00
  lon=0x00000000
  lat=0x00000000
  height=0x00000000
  hMSL=0x-0004268
  hAcc=0xFFFFFFFF
  vAcc=0xFFFFFFFF
  velN=0x00000000
  velE=0x00000000
  velD=0x00000000
  gSpeed=0x00000000
  headMot=0x00000000
  sAcc=0x000F4240
  headAcc=0x0112A880
  pDOP=0x270F
  flags3=0x00
  reserved1=0x00
  reserved1x=0x00234AF8
  headVeh=0x00000000
  magDec=0x0000
  magAcc=0x0000
NAV-DOP:
  iTOW=0x004815E8
  gDOP=0x270F
  pDOP=0x270F
  tDOP=0x270F
  vDOP=0x270F
  hDOP=0x270F
  nDOP=0x270F
  eDOP=0x270F
NAV-PVT:
  iTOW=0x004816B0
  year=0x07DF
  month=0x0A
  day=0x12
  hour=0x01
  min=0x12
  sec=0x2C
  valid=0xF0
  tAcc=0xFFFFFFFF
  nano=0x17D78400
  fixType=0x00
  flags=0x00
  flags2=0x04
  numSV=0x00
  lon=0x00000000
  lat=0x00000000
  height=0x00000000
  hMSL=0x-0004268
  hAcc=0xFFFFFFFF
  vAcc=0xFFFFFFFF
  velN=0x00000000
  velE=0x00000000
  velD=0x00000000
  gSpeed=0x00000000
  headMot=0x00000000
  sAcc=0x000F4240
  headAcc=0x0112A880
  pDOP=0x270F
  flags3=0x00
  reserved1=0x00
  reserved1x=0x00234AF8
  headVeh=0x00000000
  magDec=0x0000
  magAcc=0x0000
NAV-DOP:
  iTOW=0x004816B0
  gDOP=0x270F
  pDOP=0x270F
  tDOP=0x270F
  vDOP=0x270F
  hDOP=0x270F
  nDOP=0x270F
  eDOP=0x270F
NAV-SOL:
  iTOW=0x00595650
  fTOW=0x00000000
  week=0x0000
  gpsFix=0x00
  flags=0x40
  ecefX=0x260443C4
  ecefY=0x00000000
  ecefZ=0x00000000
  pAcc=0x3B9AC980
  ecefVX=0x00000000
  ecefVY=0x00000000
  ecefVZ=0x00000000
  sAcc=0x000186A0
  pDOP=0x270F
  reserved1=0x02
  numSV=0x00
  reserved2=0x00034AF8
NAV-PVT:
  iTOW=0x00595650
  year=0x07DF
  month=0x0A
  day=0x12
  hour=0x01
  min=0x25
  sec=0x22
  valid=0xF0
  tAcc=0xFFFFFFFF
  nano=0x2FAF0800
  fixType=0x00
  flags=0x00
  flags2=0x04
  numSV=0x00
  lon=0x00000000
  lat=0x00000000
  height=0x00000000
  hMSL=0x-0004268
  hAcc=0xFFFFFFFF
  vAcc=0xFFFFFFFF
  velN=0x00000000
  velE=0x00000000
  velD=0x00000000
  gSpeed=0x00000000
  headMot=0x00000000
  sAcc=0x000F4240
  headAcc=0x0112A880
  pDOP=0x270F
  flags3=0x00
  reserved1=0x00
  reserved1x=0x00234AF8
  headVeh=0x00000000
  magDec=0x0000
  magAcc=0x0000
NAV-DOP:
  iTOW=0x00595650
  gDOP=0x270F
  pDOP=0x270F
  tDOP=0x270F
  vDOP=0x270F
  hDOP=0x270F
  nDOP=0x270F
  eDOP=0x270F
MON-HW:
  pinSel=0x0001F400
  pinBank=0x00000000
  pinDir=0x00010000
  pinVal=0x0001F7EF
  noisePerMS=0x005A
  agcCnt=0x05CA
  aStatus=0x02
  aPower=0x01
  flags=0x00
  reserved1=0x84
  usedMask=0x0001EBFF
  VP="b'\n\x0b\x0c\r\x0e\x0f\x01\x00\x02\x03\xff\x10\xff\x12\x1365'"
  jamInd=0x0F
  reserved2=0x5E01
  pinIrq=0x00000000
  pullH=0x0001F780
  pullL=0x00000000
NAV-SOL:
  iTOW=0x00595718
  fTOW=0x00000000
  week=0x0000
  gpsFix=0x00
  flags=0x40
  ecefX=0x260443C4
  ecefY=0x00000000
  ecefZ=0x00000000
  pAcc=0x3B9AC980
  ecefVX=0x00000000
  ecefVY=0x00000000
  ecefVZ=0x00000000
  sAcc=0x000186A0
  pDOP=0x270F
  reserved1=0x02
  numSV=0x00
  reserved2=0x00034AF8
NAV-PVT:
  iTOW=0x00595718
  year=0x07DF
  month=0x0A
  day=0x12
  hour=0x01
  min=0x25
  sec=0x23
  valid=0xF0
  tAcc=0xFFFFFFFF
  nano=0x00000000
  fixType=0x00
  flags=0x00
  flags2=0x04
  numSV=0x00
  lon=0x00000000
  lat=0x00000000
  height=0x00000000
  hMSL=0x-0004268
  hAcc=0xFFFFFFFF
  vAcc=0xFFFFFFFF
  velN=0x00000000
  velE=0x00000000
  velD=0x00000000
  gSpeed=0x00000000
  headMot=0x00000000
  sAcc=0x000F4240
  headAcc=0x0112A880
  pDOP=0x270F
  flags3=0x00
  reserved1=0x00
  reserved1x=0x00234AF8
  headVeh=0x00000000
  magDec=0x0000
  magAcc=0x0000
NAV-DOP:
  iTOW=0x00595718
  gDOP=0x270F
  pDOP=0x270F
  tDOP=0x270F
  vDOP=0x270F
  hDOP=0x270F
  nDOP=0x270F
  eDOP=0x270F
NAV-SOL:
  iTOW=0x005957E0
  fTOW=0x00000000
  week=0x0000
  gpsFix=0x00
  flags=0x40
  ecefX=0x260443C4
  ecefY=0x00000000
  ecefZ=0x00000000
  pAcc=0x3B9AC980
  ecefVX=0x00000000
  ecefVY=0x00000000
  ecefVZ=0x00000000
  sAcc=0x000186A0
  pDOP=0x270F
  reserved1=0x02
  numSV=0x00
  reserved2=0x00034AF8
NAV-PVT:
  iTOW=0x005957E0
  year=0x07DF
  month=0x0A
  day=0x12
  hour=0x01
  min=0x25
  sec=0x23
  valid=0xF0
  tAcc=0xFFFFFFFF
  nano=0x0BEBC1FF
  fixType=0x00
  flags=0x00
  flags2=0x04
  numSV=0x00
  lon=0x00000000
  lat=0x00000000
  height=0x00000000
  hMSL=0x-0004268
  hAcc=0xFFFFFFFF
  vAcc=0xFFFFFFFF
  velN=0x00000000
  velE=0x00000000
  velD=0x00000000
  gSpeed=0x00000000
  headMot=0x00000000
  sAcc=0x000F4240
  headAcc=0x0112A880
  pDOP=0x270F
  flags3=0x00
  reserved1=0x00
  reserved1x=0x00234AF8
  headVeh=0x00000000
  magDec=0x0000
  magAcc=0x0000
NAV-DOP:
  iTOW=0x005957E0
  gDOP=0x270F
  pDOP=0x270F
  tDOP=0x270F
  vDOP=0x270F
  hDOP=0x270F
  nDOP=0x270F
  eDOP=0x270F
NAV-SOL:
  iTOW=0x005958A8
  fTOW=0x00000000
  week=0x0000
  gpsFix=0x00
  flags=0x40
  ecefX=0x260443C4
  ecefY=0x00000000
  ecefZ=0x00000000
  pAcc=0x3B9AC980
  ecefVX=0x00000000
  ecefVY=0x00000000
  ecefVZ=0x00000000
  sAcc=0x000186A0
  pDOP=0x270F
  reserved1=0x02
  numSV=0x00
  reserved2=0x00034AF8
NAV-PVT:
  iTOW=0x005958A8
  year=0x07DF
  month=0x0A
  day=0x12
  hour=0x01
  min=0x25
  sec=0x23
  valid=0xF0
  tAcc=0xFFFFFFFF
  nano=0x17D78400
  fixType=0x00
  flags=0x00
  flags2=0x04
  numSV=0x00
  lon=0x00000000
  lat=0x00000000
  height=0x00000000
  hMSL=0x-0004268
  hAcc=0xFFFFFFFF
  vAcc=0xFFFFFFFF
  velN=0x00000000
  velE=0x00000000
  velD=0x00000000
  gSpeed=0x00000000
  headMot=0x00000000
  sAcc=0x000F4240
  headAcc=0x0112A880
  pDOP=0x270F
  flags3=0x00
  reserved1=0x00
  reserved1x=0x00234AF8
  headVeh=0x00000000
  magDec=0x0000
  magAcc=0x0000
NAV-DOP:
  iTOW=0x005958A8
  gDOP=0x270F
  pDOP=0x270F
  tDOP=0x270F
  vDOP=0x270F
  hDOP=0x270F
  nDOP=0x270F
  eDOP=0x270F
NAV-SOL:
  iTOW=0x00595970
  fTOW=0x00000000
  week=0x0000
  gpsFix=0x00
  flags=0x40
  ecefX=0x260443C4
  ecefY=0x00000000
  ecefZ=0x00000000
  pAcc=0x3B9AC980
  ecefVX=0x00000000
  ecefVY=0x00000000
  ecefVZ=0x00000000
  sAcc=0x000186A0
  pDOP=0x270F
  reserved1=0x02
  numSV=0x00
  reserved2=0x00034AF8
NAV-PVT:
  iTOW=0x00595970
  year=0x07DF
  month=0x0A
  day=0x12
  hour=0x01
  min=0x25
  sec=0x23
  valid=0xF0
  tAcc=0xFFFFFFFF
  nano=0x23C34600
  fixType=0x00
  flags=0x00
  flags2=0x04
  numSV=0x00
  lon=0x00000000
  lat=0x00000000
  height=0x00000000
  hMSL=0x-0004268
  hAcc=0xFFFFFFFF
  vAcc=0xFFFFFFFF
  velN=0x00000000
  velE=0x00000000
  velD=0x00000000
  gSpeed=0x00000000
  headMot=0x00000000
  sAcc=0x000F4240
  headAcc=0x0112A880
  pDOP=0x270F
  flags3=0x00
  reserved1=0x00
  reserved1x=0x00234AF8
  headVeh=0x00000000
  magDec=0x0000
  magAcc=0x0000
NAV-DOP:
  iTOW=0x00595970
  gDOP=0x270F
  pDOP=0x270F
  tDOP=0x270F
  vDOP=0x270F
  hDOP=0x270F
  nDOP=0x270F
  eDOP=0x270F
NAV-SOL:
  iTOW=0x00595A38
  fTOW=0x00000000
  week=0x0000
  gpsFix=0x00
  flags=0x40
  ecefX=0x260443C4
  ecefY=0x00000000
  ecefZ=0x00000000
  pAcc=0x3B9AC980
  ecefVX=0x00000000
  ecefVY=0x00000000
  ecefVZ=0x00000000
  sAcc=0x000186A0
  pDOP=0x270F
  reserved1=0x02
  numSV=0x00
  reserved2=0x00034AF8
NAV-PVT:
  iTOW=0x00595A38
  year=0x07DF
  month=0x0A
  day=0x12
  hour=0x01
  min=0x25
  sec=0x23
  valid=0xF0
  tAcc=0xFFFFFFFF
  nano=0x2FAF0800
  fixType=0x00
  flags=0x00
  flags2=0x04
  numSV=0x00
  lon=0x00000000
  lat=0x00000000
  height=0x00000000
  hMSL=0x-0004268
  hAcc=0xFFFFFFFF
  vAcc=0xFFFFFFFF
  velN=0x00000000
  velE=0x00000000
  velD=0x00000000
  gSpeed=0x00000000
  headMot=0x00000000
  sAcc=0x000F4240
  headAcc=0x0112A880
  pDOP=0x270F
  flags3=0x00
  reserved1=0x00
  reserved1x=0x00234AF8
  headVeh=0x00000000
  magDec=0x0000
  magAcc=0x0000
NAV-DOP:
  iTOW=0x00595A38
  gDOP=0x270F
  pDOP=0x270F
  tDOP=0x270F
  vDOP=0x270F
  hDOP=0x270F
  nDOP=0x270F
  eDOP=0x270F
NAV-SOL:
  iTOW=0x00595B00
  fTOW=0x00000000
  week=0x0000
  gpsFix=0x00
  flags=0x40
  ecefX=0x260443C4
  ecefY=0x00000000
  ecefZ=0x00000000
  pAcc=0x3B9AC980
  ecefVX=0x00000000
  ecefVY=0x00000000
  ecefVZ=0x00000000
  sAcc=0x000186A0
  pDOP=0x270F
  reserved1=0x02
  numSV=0x00
  reserved2=0x00034AF8
NAV-PVT:
  iTOW=0x00595B00
  year=0x07DF
  month=0x0A
  day=0x12
  hour=0x01
  min=0x25
  sec=0x24
  valid=0xF0
  tAcc=0xFFFFFFFF
  nano=0x00000000
  fixType=0x00
  flags=0x00
  flags2=0x04
  numSV=0x00
  lon=0x00000000
  lat=0x00000000
  height=0x00000000
  hMSL=0x-0004268
  hAcc=0xFFFFFFFF
  vAcc=0xFFFFFFFF
  velN=0x00000000
  velE=0x00000000
  velD=0x00000000
  gSpeed=0x00000000
  headMot=0x00000000
  sAcc=0x000F4240
  headAcc=0x0112A880
  pDOP=0x270F
  flags3=0x00
  reserved1=0x00
  reserved1x=0x00234AF8
  headVeh=0x00000000
  magDec=0x0000
  magAcc=0x0000
NAV-DOP:
  iTOW=0x00595B00
  gDOP=0x270F
  pDOP=0x270F
  tDOP=0x270F
  vDOP=0x270F
  hDOP=0x270F
  nDOP=0x270F
  eDOP=0x270F
NAV-SOL:
  iTOW=0x00595BC8
  fTOW=0x00000000
  week=0x0000
  gpsFix=0x00
  flags=0x40
  ecefX=0x260443C4
  ecefY=0x00000000
  ecefZ=0x00000000
  pAcc=0x3B9AC980
  ecefVX=0x00000000
  ecefVY=0x00000000
  ecefVZ=0x00000000
  sAcc=0x000186A0
  pDOP=0x270F
  reserved1=0x02
  numSV=0x00
  reserved2=0x00034AF8
NAV-PVT:
  iTOW=0x00595BC8
  year=0x07DF
  month=0x0A
  day=0x12
  hour=0x01
  min=0x25
  sec=0x24
  valid=0xF0
  tAcc=0xFFFFFFFF
  nano=0x0BEBC1FF
  fixType=0x00
  flags=0x00
  flags2=0x04
  numSV=0x00
  lon=0x00000000
  lat=0x00000000
  height=0x00000000
  hMSL=0x-0004268
  hAcc=0xFFFFFFFF
  vAcc=0xFFFFFFFF
  velN=0x00000000
  velE=0x00000000
  velD=0x00000000
  gSpeed=0x00000000
  headMot=0x00000000
  sAcc=0x000F4240
  headAcc=0x0112A880
  pDOP=0x270F
  flags3=0x00
  reserved1=0x00
  reserved1x=0x00234AF8
  headVeh=0x00000000
  magDec=0x0000
  magAcc=0x0000
NAV-DOP:
  iTOW=0x00595BC8
  gDOP=0x270F
  pDOP=0x270F
  tDOP=0x270F
  vDOP=0x270F
  hDOP=0x270F
  nDOP=0x270F
  eDOP=0x270F
NAV-SOL:
  iTOW=0x00595C90
  fTOW=0x00000000
  week=0x0000
  gpsFix=0x00
  flags=0x40
  ecefX=0x260443C4
  ecefY=0x00000000
  ecefZ=0x00000000
  pAcc=0x3B9AC980
  ecefVX=0x00000000
  ecefVY=0x00000000
  ecefVZ=0x00000000
  sAcc=0x000186A0
  pDOP=0x270F
  reserved1=0x02
  numSV=0x00
  reserved2=0x00034AF8
NAV-PVT:
  iTOW=0x00595C90
  year=0x07DF
  month=0x0A
  day=0x12
  hour=0x01
  min=0x25
  sec=0x24
  valid=0xF0
  tAcc=0xFFFFFFFF
  nano=0x17D78400
  fixType=0x00
  flags=0x00
  flags2=0x04
  numSV=0x00
  lon=0x00000000
  lat=0x00000000
  height=0x00000000
  hMSL=0x-0004268
  hAcc=0xFFFFFFFF
  vAcc=0xFFFFFFFF
  velN=0x00000000
  velE=0x00000000
  velD=0x00000000
  gSpeed=0x00000000
  headMot=0x00000000
  sAcc=0x000F4240
  headAcc=0x0112A880
  pDOP=0x270F
  flags3=0x00
  reserved1=0x00
  reserved1x=0x00234AF8
  headVeh=0x00000000
  magDec=0x0000
  magAcc=0x0000
NAV-DOP:
  iTOW=0x00595C90
  gDOP=0x270F
  pDOP=0x270F
  tDOP=0x270F
  vDOP=0x270F
  hDOP=0x270F
  nDOP=0x270F
  eDOP=0x270F
NAV-SOL:
  iTOW=0x00595D58
  fTOW=0x00000000
  week=0x0000
  gpsFix=0x00
  flags=0x40
  ecefX=0x260443C4
  ecefY=0x00000000
  ecefZ=0x00000000
  pAcc=0x3B9AC980
  ecefVX=0x00000000
  ecefVY=0x00000000
  ecefVZ=0x00000000
  sAcc=0x000186A0
  pDOP=0x270F
  reserved1=0x02
  numSV=0x00
  reserved2=0x00034AF8
NAV-PVT:
  iTOW=0x00595D58
  year=0x07DF
  month=0x0A
  day=0x12
  hour=0x01
  min=0x25
  sec=0x24
  valid=0xF0
  tAcc=0xFFFFFFFF
  nano=0x23C34600
  fixType=0x00
  flags=0x00
  flags2=0x04
  numSV=0x00
  lon=0x00000000
  lat=0x00000000
  height=0x00000000
  hMSL=0x-0004268
  hAcc=0xFFFFFFFF
  vAcc=0xFFFFFFFF
  velN=0x00000000
  velE=0x00000000
  velD=0x00000000
  gSpeed=0x00000000
  headMot=0x00000000
  sAcc=0x000F4240
  headAcc=0x0112A880
  pDOP=0x270F
  flags3=0x00
  reserved1=0x00
  reserved1x=0x00234AF8
  headVeh=0x00000000
  magDec=0x0000
  magAcc=0x0000
NAV-DOP:
  iTOW=0x00595D58
  gDOP=0x270F
  pDOP=0x270F
  tDOP=0x270F
  vDOP=0x270F
  hDOP=0x270F
  nDOP=0x270F
  eDOP=0x270F
NAV-SOL:
  iTOW=0x00595E20
  fTOW=0x00000000
  week=0x0000
  gpsFix=0x00
  flags=0x40
  ecefX=0x260443C4
  ecefY=0x00000000
  ecefZ=0x00000000
  pAcc=0x3B9AC980
  ecefVX=0x00000000
  ecefVY=0x00000000
  ecefVZ=0x00000000
  sAcc=0x000186A0
  pDOP=0x270F
  reserved1=0x02
  numSV=0x00
  reserved2=0x00034AF8
NAV-PVT:
  iTOW=0x00595E20
  year=0x07DF
  month=0x0A
  day=0x12
  hour=0x01
  min=0x25
  sec=0x24
  valid=0xF0
  tAcc=0xFFFFFFFF
  nano=0x2FAF0800
  fixType=0x00
  flags=0x00
  flags2=0x04
  numSV=0x00
  lon=0x00000000
  lat=0x00000000
  height=0x00000000
  hMSL=0x-0004268
  hAcc=0xFFFFFFFF
  vAcc=0xFFFFFFFF
  velN=0x00000000
  velE=0x00000000
  velD=0x00000000
  gSpeed=0x00000000
  headMot=0x00000000
  sAcc=0x000F4240
  headAcc=0x0112A880
  pDOP=0x270F
  flags3=0x00
  reserved1=0x00
  reserved1x=0x00234AF8
  headVeh=0x00000000
  magDec=0x0000
  magAcc=0x0000
NAV-DOP:
  iTOW=0x00595E20
  gDOP=0x270F
  pDOP=0x270F
  tDOP=0x270F
  vDOP=0x270F
  hDOP=0x270F
  nDOP=0x270F
  eDOP=0x270F
NAV-SOL:
  iTOW=0x00595EE8
  fTOW=0x00000000
  week=0x0000
  gpsFix=0x00
  flags=0x40
  ecefX=0x260443C4
  ecefY=0x00000000
  ecefZ=0x00000000
  pAcc=0x3B9AC980
  ecefVX=0x00000000
  ecefVY=0x00000000
  ecefVZ=0x00000000
  sAcc=0x000186A0
  pDOP=0x270F
  reserved1=0x02
  numSV=0x00
  reserved2=0x00034AF8
NAV-PVT:
  iTOW=0x00595EE8
  year=0x07DF
  month=0x0A
  day=0x12
  hour=0x01
  min=0x25
  sec=0x25
  valid=0xF0
  tAcc=0xFFFFFFFF
  nano=0x00000000
  fixType=0x00
  flags=0x00
  flags2=0x04
  numSV=0x00
  lon=0x00000000
  lat=0x00000000
  height=0x00000000
  hMSL=0x-0004268
  hAcc=0xFFFFFFFF
  vAcc=0xFFFFFFFF
  velN=0x00000000
  velE=0x00000000
  velD=0x00000000
  gSpeed=0x00000000
  headMot=0x00000000
  sAcc=0x000F4240
  headAcc=0x0112A880
  pDOP=0x270F
  flags3=0x00
  reserved1=0x00
  reserved1x=0x00234AF8
  headVeh=0x00000000
  magDec=0x0000
  magAcc=0x0000
NAV-DOP:
  iTOW=0x00595EE8
  gDOP=0x270F
  pDOP=0x270F
  tDOP=0x270F
  vDOP=0x270F
  hDOP=0x270F
  nDOP=0x270F
  eDOP=0x270F
NAV-SOL:
  iTOW=0x00595FB0
  fTOW=0x00000000
  week=0x0000
  gpsFix=0x00
  flags=0x40
  ecefX=0x260443C4
  ecefY=0x00000000
  ecefZ=0x00000000
  pAcc=0x3B9AC980
  ecefVX=0x00000000
  ecefVY=0x00000000
  ecefVZ=0x00000000
  sAcc=0x000186A0
  pDOP=0x270F
  reserved1=0x02
  numSV=0x00
  reserved2=0x00034AF8
NAV-PVT:
  iTOW=0x00595FB0
  year=0x07DF
  month=0x0A
  day=0x12
  hour=0x01
  min=0x25
  sec=0x25
  valid=0xF0
  tAcc=0xFFFFFFFF
  nano=0x0BEBC1FF
  fixType=0x00
  flags=0x00
  flags2=0x04
  numSV=0x00
  lon=0x00000000
  lat=0x00000000
  height=0x00000000
  hMSL=0x-0004268
  hAcc=0xFFFFFFFF
  vAcc=0xFFFFFFFF
  velN=0x00000000
  velE=0x00000000
  velD=0x00000000
  gSpeed=0x00000000
  headMot=0x00000000
  sAcc=0x000F4240
  headAcc=0x0112A880
  pDOP=0x270F
  flags3=0x00
  reserved1=0x00
  reserved1x=0x00234AF8
  headVeh=0x00000000
  magDec=0x0000
  magAcc=0x0000
NAV-DOP:
  iTOW=0x00595FB0
  gDOP=0x270F
  pDOP=0x270F
  tDOP=0x270F
  vDOP=0x270F
  hDOP=0x270F
  nDOP=0x270F
  eDOP=0x270F
NAV-SOL:
  iTOW=0x00596078
  fTOW=0x00000000
  week=0x0000
  gpsFix=0x00
  flags=0x40
  ecefX=0x260443C4
  ecefY=0x00000000
  ecefZ=0x00000000
  pAcc=0x3B9AC980
